{
  "type": "FeatureCollection",
  "features": [
    {
      "type": "Feature",
      "geometry": {
        "type": "Point",
        "coordinates": [
          15.883333,
          44.816667
        ]
      },
      "properties": {
        "id": "13228",
        "icao": "LQBI",
        "name": "Bihac",
        "country": "Bosnia and Herzegovina"
      }
    },
    {
      "type": "Feature",
      "geometry": {
        "type": "Point",
        "coordinates": [
          17.216667,
          44.783333
        ]
      },
      "properties": {
        "id": "13242",
        "icao": "LQBK",
        "name": "Banja Luka",
        "country": "Bosnia and Herzegovina"
      }
    },
    {
      "type": "Feature",
      "geometry": {
        "type": "Point",
        "coordinates": [
          17.466667,
          44.066667
        ]
      },
      "properties": {
        "id": "13244",
        "name": "Became Station 145440",
        "country": "Bosnia and Herzegovina"
      }
    },
    {
      "type": "Feature",
      "geometry": {
        "type": "Point",
        "coordinates": [
          17.900000,
          44.216667
        ]
      },
      "properties": {
        "id": "13249",
        "name": "Became Station 145490",
        "country": "Bosnia and Herzegovina"
      }
    },
    {
      "type": "Feature",
      "geometry": {
        "type": "Point",
        "coordinates": [
          18.700000,
          44.550000
        ]
      },
      "properties": {
        "id": "13257",
        "icao": "LQTZ",
        "name": "Tuzla",
        "country": "Bosnia and Herzegovina"
      }
    },
    {
      "type": "Feature",
      "geometry": {
        "type": "Point",
        "coordinates": [
          17.016667,
          43.833333
        ]
      },
      "properties": {
        "id": "13340",
        "name": "Became Station 146400",
        "country": "Bosnia and Herzegovina"
      }
    },
    {
      "type": "Feature",
      "geometry": {
        "type": "Point",
        "coordinates": [
          17.800000,
          43.350000
        ]
      },
      "properties": {
        "id": "13348",
        "icao": "LQMO",
        "name": "Mostar",
        "country": "Bosnia and Herzegovina"
      }
    },
    {
      "type": "Feature",
      "geometry": {
        "type": "Point",
        "coordinates": [
          18.433333,
          43.866667
        ]
      },
      "properties": {
        "id": "13354",
        "name": "Became Station 146540",
        "country": "Bosnia and Herzegovina"
      }
    },
    {
      "type": "Feature",
      "geometry": {
        "type": "Point",
        "coordinates": [
          15.866389,
          44.807500
        ]
      },
      "properties": {
        "id": "14528",
        "name": "Bihac",
        "country": "Bosnia and Herzegovina"
      }
    },
    {
      "type": "Feature",
      "geometry": {
        "type": "Point",
        "coordinates": [
          16.675833,
          44.770833
        ]
      },
      "properties": {
        "id": "14537",
        "name": "Sanski Most",
        "country": "Bosnia and Herzegovina"
      }
    },
    {
      "type": "Feature",
      "geometry": {
        "type": "Point",
        "coordinates": [
          17.216667,
          44.783056
        ]
      },
      "properties": {
        "id": "14542",
        "name": "Banja Luka",
        "country": "Bosnia and Herzegovina"
      }
    },
    {
      "type": "Feature",
      "geometry": {
        "type": "Point",
        "coordinates": [
          17.267778,
          44.343056
        ]
      },
      "properties": {
        "id": "14543",
        "name": "Jajce",
        "country": "Bosnia and Herzegovina"
      }
    },
    {
      "type": "Feature",
      "geometry": {
        "type": "Point",
        "coordinates": [
          17.451389,
          44.061944
        ]
      },
      "properties": {
        "id": "14544",
        "name": "Bugojno",
        "country": "Bosnia and Herzegovina"
      }
    },
    {
      "type": "Feature",
      "geometry": {
        "type": "Point",
        "coordinates": [
          17.900278,
          44.201944
        ]
      },
      "properties": {
        "id": "14549",
        "name": "Zenica",
        "country": "Bosnia and Herzegovina"
      }
    },
    {
      "type": "Feature",
      "geometry": {
        "type": "Point",
        "coordinates": [
          18.685000,
          44.541944
        ]
      },
      "properties": {
        "id": "14557",
        "name": "Tuzla",
        "country": "Bosnia and Herzegovina"
      }
    },
    {
      "type": "Feature",
      "geometry": {
        "type": "Point",
        "coordinates": [
          17.000833,
          43.822500
        ]
      },
      "properties": {
        "id": "14640",
        "icao": "LQLV",
        "name": "Livno",
        "country": "Bosnia and Herzegovina"
      }
    },
    {
      "type": "Feature",
      "geometry": {
        "type": "Point",
        "coordinates": [
          17.793889,
          43.348056
        ]
      },
      "properties": {
        "id": "14648",
        "name": "Mostar",
        "country": "Bosnia and Herzegovina"
      }
    },
    {
      "type": "Feature",
      "geometry": {
        "type": "Point",
        "coordinates": [
          18.256944,
          43.703611
        ]
      },
      "properties": {
        "id": "14652",
        "name": "Bjelasnica",
        "country": "Bosnia and Herzegovina"
      }
    },
    {
      "type": "Feature",
      "geometry": {
        "type": "Point",
        "coordinates": [
          18.422778,
          43.867778
        ]
      },
      "properties": {
        "id": "14654",
        "name": "Sarajevo-Bejelave",
        "country": "Bosnia and Herzegovina"
      }
    },
    {
      "type": "Feature",
      "geometry": {
        "type": "Point",
        "coordinates": [
          18.600000,
          43.233056
        ]
      },
      "properties": {
        "id": "14656",
        "name": "Cemerno",
        "country": "Bosnia and Herzegovina"
      }
    },
    {
      "type": "Feature",
      "geometry": {
        "type": "Point",
        "coordinates": [
          17.608611,
          42.927222
        ]
      },
      "properties": {
        "id": "14657",
        "name": "Neum",
        "country": "Bosnia and Herzegovina"
      }
    },
    {
      "type": "Feature",
      "geometry": {
        "type": "Point",
        "coordinates": [
          -68.283333,
          12.150000
        ]
      },
      "properties": {
        "id": "78990",
        "icao": "TNCB",
        "name": "Flamingo Airport, Bonaire",
        "country": "Bonaire"
      }
    },
    {
      "type": "Feature",
      "geometry": {
        "type": "Point",
        "coordinates": [
          -65.349722,
          -10.816667
        ]
      },
      "properties": {
        "id": "85033",
        "icao": "SLGY",
        "name": "Guayaramerin",
        "country": "Bolivia, Plurinational State of"
      }
    },
    {
      "type": "Feature",
      "geometry": {
        "type": "Point",
        "coordinates": [
          -68.783056,
          -11.033056
        ]
      },
      "properties": {
        "id": "85041",
        "icao": "SLCO",
        "name": "Cobija",
        "country": "Bolivia, Plurinational State of"
      }
    },
    {
      "type": "Feature",
      "geometry": {
        "type": "Point",
        "coordinates": [
          -66.116667,
          -11.000000
        ]
      },
      "properties": {
        "id": "85043",
        "icao": "SLRI",
        "name": "Riberalta",
        "country": "Bolivia, Plurinational State of"
      }
    },
    {
      "type": "Feature",
      "geometry": {
        "type": "Point",
        "coordinates": [
          -64.816667,
          -13.066667
        ]
      },
      "properties": {
        "id": "85104",
        "icao": "SLJO",
        "name": "San Joaquin",
        "country": "Bolivia, Plurinational State of"
      }
    },
    {
      "type": "Feature",
      "geometry": {
        "type": "Point",
        "coordinates": [
          -64.700000,
          -13.300000
        ]
      },
      "properties": {
        "id": "85109",
        "name": "San Ramon",
        "country": "Bolivia, Plurinational State of"
      }
    },
    {
      "type": "Feature",
      "geometry": {
        "type": "Point",
        "coordinates": [
          -64.116667,
          -13.333056
        ]
      },
      "properties": {
        "id": "85114",
        "icao": "SLMG",
        "name": "Magdalena",
        "country": "Bolivia, Plurinational State of"
      }
    },
    {
      "type": "Feature",
      "geometry": {
        "type": "Point",
        "coordinates": [
          -65.433056,
          -13.766667
        ]
      },
      "properties": {
        "id": "85123",
        "icao": "SLSA",
        "name": "Santa Ana",
        "country": "Bolivia, Plurinational State of"
      }
    },
    {
      "type": "Feature",
      "geometry": {
        "type": "Point",
        "coordinates": [
          -66.900000,
          -14.166667
        ]
      },
      "properties": {
        "id": "85139",
        "name": "Santa Rosa",
        "country": "Bolivia, Plurinational State of"
      }
    },
    {
      "type": "Feature",
      "geometry": {
        "type": "Point",
        "coordinates": [
          -67.383056,
          -14.316667
        ]
      },
      "properties": {
        "id": "85140",
        "icao": "SLRY",
        "name": "Reyes",
        "country": "Bolivia, Plurinational State of"
      }
    },
    {
      "type": "Feature",
      "geometry": {
        "type": "Point",
        "coordinates": [
          -67.566667,
          -14.466667
        ]
      },
      "properties": {
        "id": "85141",
        "icao": "SLRQ",
        "name": "Rurrenabaque",
        "country": "Bolivia, Plurinational State of"
      }
    },
    {
      "type": "Feature",
      "geometry": {
        "type": "Point",
        "coordinates": [
          -68.500000,
          -14.733056
        ]
      },
      "properties": {
        "id": "85151",
        "icao": "SLAP",
        "name": "Apolo",
        "country": "Bolivia, Plurinational State of"
      }
    },
    {
      "type": "Feature",
      "geometry": {
        "type": "Point",
        "coordinates": [
          -66.866667,
          -14.866667
        ]
      },
      "properties": {
        "id": "85152",
        "icao": "SLSB",
        "name": "San Borja",
        "country": "Bolivia, Plurinational State of"
      }
    },
    {
      "type": "Feature",
      "geometry": {
        "type": "Point",
        "coordinates": [
          -65.599722,
          -14.916667
        ]
      },
      "properties": {
        "id": "85153",
        "icao": "SLSM",
        "name": "San Ignacio De Moxos",
        "country": "Bolivia, Plurinational State of"
      }
    },
    {
      "type": "Feature",
      "geometry": {
        "type": "Point",
        "coordinates": [
          -64.916667,
          -14.816667
        ]
      },
      "properties": {
        "id": "85154",
        "icao": "SLTR",
        "name": "Trinidad",
        "country": "Bolivia, Plurinational State of"
      }
    },
    {
      "type": "Feature",
      "geometry": {
        "type": "Point",
        "coordinates": [
          -63.100000,
          -15.716667
        ]
      },
      "properties": {
        "id": "85175",
        "icao": "SLAS",
        "name": "Ascencion De Guarayos",
        "country": "Bolivia, Plurinational State of"
      }
    },
    {
      "type": "Feature",
      "geometry": {
        "type": "Point",
        "coordinates": [
          -62.466667,
          -16.266667
        ]
      },
      "properties": {
        "id": "85195",
        "icao": "SLJV",
        "name": "San Javier",
        "country": "Bolivia, Plurinational State of"
      }
    },
    {
      "type": "Feature",
      "geometry": {
        "type": "Point",
        "coordinates": [
          -62.016667,
          -16.149722
        ]
      },
      "properties": {
        "id": "85196",
        "icao": "SLCP",
        "name": "Concepcion",
        "country": "Bolivia, Plurinational State of"
      }
    },
    {
      "type": "Feature",
      "geometry": {
        "type": "Point",
        "coordinates": [
          -68.183056,
          -16.516667
        ]
      },
      "properties": {
        "id": "85201",
        "icao": "SLLP",
        "name": "La Paz / Alto",
        "country": "Bolivia, Plurinational State of"
      }
    },
    {
      "type": "Feature",
      "geometry": {
        "type": "Point",
        "coordinates": [
          -60.966667,
          -16.383056
        ]
      },
      "properties": {
        "id": "85207",
        "icao": "SLSI",
        "name": "San Ignacio De Velasco",
        "country": "Bolivia, Plurinational State of"
      }
    },
    {
      "type": "Feature",
      "geometry": {
        "type": "Point",
        "coordinates": [
          -58.383056,
          -16.333056
        ]
      },
      "properties": {
        "id": "85210",
        "name": "San Matias",
        "country": "Bolivia, Plurinational State of"
      }
    },
    {
      "type": "Feature",
      "geometry": {
        "type": "Point",
        "coordinates": [
          -66.183056,
          -17.416667
        ]
      },
      "properties": {
        "id": "85223",
        "icao": "SLCB",
        "name": "Cochabamba",
        "country": "Bolivia, Plurinational State of"
      }
    },
    {
      "type": "Feature",
      "geometry": {
        "type": "Point",
        "coordinates": [
          -63.133056,
          -17.633056
        ]
      },
      "properties": {
        "id": "85244",
        "icao": "SLVR",
        "name": "Viru-Viru",
        "country": "Bolivia, Plurinational State of"
      }
    },
    {
      "type": "Feature",
      "geometry": {
        "type": "Point",
        "coordinates": [
          -63.183056,
          -17.800000
        ]
      },
      "properties": {
        "id": "85245",
        "icao": "SLET",
        "name": "Santa Cruz / El Trompillo",
        "country": "Bolivia, Plurinational State of"
      }
    },
    {
      "type": "Feature",
      "geometry": {
        "type": "Point",
        "coordinates": [
          -60.733056,
          -17.800000
        ]
      },
      "properties": {
        "id": "85247",
        "icao": "SLJE",
        "name": "San Jose De Chiquitos",
        "country": "Bolivia, Plurinational State of"
      }
    },
    {
      "type": "Feature",
      "geometry": {
        "type": "Point",
        "coordinates": [
          -64.099722,
          -18.466667
        ]
      },
      "properties": {
        "id": "85264",
        "name": "Vallegrande",
        "country": "Bolivia, Plurinational State of"
      }
    },
    {
      "type": "Feature",
      "geometry": {
        "type": "Point",
        "coordinates": [
          -59.766667,
          -18.316667
        ]
      },
      "properties": {
        "id": "85268",
        "icao": "SLRB",
        "name": "Robore",
        "country": "Bolivia, Plurinational State of"
      }
    },
    {
      "type": "Feature",
      "geometry": {
        "type": "Point",
        "coordinates": [
          -65.299722,
          -19.016667
        ]
      },
      "properties": {
        "id": "85283",
        "icao": "SLSU",
        "name": "Sucre",
        "country": "Bolivia, Plurinational State of"
      }
    },
    {
      "type": "Feature",
      "geometry": {
        "type": "Point",
        "coordinates": [
          -57.816667,
          -18.983056
        ]
      },
      "properties": {
        "id": "85289",
        "icao": "SLPS",
        "name": "Puerto Suarez",
        "country": "Bolivia, Plurinational State of"
      }
    },
    {
      "type": "Feature",
      "geometry": {
        "type": "Point",
        "coordinates": [
          -65.733056,
          -19.550000
        ]
      },
      "properties": {
        "id": "85293",
        "icao": "SLPO",
        "name": "Potosi",
        "country": "Bolivia, Plurinational State of"
      }
    },
    {
      "type": "Feature",
      "geometry": {
        "type": "Point",
        "coordinates": [
          -63.916667,
          -19.783056
        ]
      },
      "properties": {
        "id": "85312",
        "name": "Monteagudo",
        "country": "Bolivia, Plurinational State of"
      }
    },
    {
      "type": "Feature",
      "geometry": {
        "type": "Point",
        "coordinates": [
          -63.533056,
          -20.000000
        ]
      },
      "properties": {
        "id": "85315",
        "icao": "SLCA",
        "name": "Camiri",
        "country": "Bolivia, Plurinational State of"
      }
    },
    {
      "type": "Feature",
      "geometry": {
        "type": "Point",
        "coordinates": [
          -63.450000,
          -21.250000
        ]
      },
      "properties": {
        "id": "85345",
        "icao": "SLVM",
        "name": "Villamontes",
        "country": "Bolivia, Plurinational State of"
      }
    },
    {
      "type": "Feature",
      "geometry": {
        "type": "Point",
        "coordinates": [
          -64.700000,
          -21.550000
        ]
      },
      "properties": {
        "id": "85364",
        "icao": "SLTJ",
        "name": "Tarija",
        "country": "Bolivia, Plurinational State of"
      }
    },
    {
      "type": "Feature",
      "geometry": {
        "type": "Point",
        "coordinates": [
          -63.649722,
          -21.949722
        ]
      },
      "properties": {
        "id": "85365",
        "icao": "SLYA",
        "name": "Yacuiba",
        "country": "Bolivia, Plurinational State of"
      }
    },
    {
      "type": "Feature",
      "geometry": {
        "type": "Point",
        "coordinates": [
          -64.316667,
          -22.766667
        ]
      },
      "properties": {
        "id": "85394",
        "name": "Bermejo",
        "country": "Bolivia, Plurinational State of"
      }
    },
    {
      "type": "Feature",
      "geometry": {
        "type": "Point",
        "coordinates": [
          -64.683333,
          32.366667
        ]
      },
      "properties": {
        "id": "78016",
        "icao": "TXKF",
        "name": "Bermuda",
        "country": "Bermuda"
      }
    },
    {
      "type": "Feature",
      "geometry": {
        "type": "Point",
        "coordinates": [
          2.933056,
          11.133056
        ]
      },
      "properties": {
        "id": "65306",
        "icao": "DBBK",
        "name": "Kandi",
        "country": "Benin"
      }
    },
    {
      "type": "Feature",
      "geometry": {
        "type": "Point",
        "coordinates": [
          1.383056,
          10.316667
        ]
      },
      "properties": {
        "id": "65319",
        "icao": "DBBN",
        "name": "Natitingou",
        "country": "Benin"
      }
    },
    {
      "type": "Feature",
      "geometry": {
        "type": "Point",
        "coordinates": [
          2.616667,
          9.349722
        ]
      },
      "properties": {
        "id": "65330",
        "icao": "DBBP",
        "name": "Parakou",
        "country": "Benin"
      }
    },
    {
      "type": "Feature",
      "geometry": {
        "type": "Point",
        "coordinates": [
          2.466667,
          8.033056
        ]
      },
      "properties": {
        "id": "65335",
        "icao": "DBBS",
        "name": "Save",
        "country": "Benin"
      }
    },
    {
      "type": "Feature",
      "geometry": {
        "type": "Point",
        "coordinates": [
          2.066667,
          7.166667
        ]
      },
      "properties": {
        "id": "65338",
        "icao": "DBBC",
        "name": "Bohicon",
        "country": "Benin"
      }
    },
    {
      "type": "Feature",
      "geometry": {
        "type": "Point",
        "coordinates": [
          2.383056,
          6.349722
        ]
      },
      "properties": {
        "id": "65344",
        "icao": "DBBB",
        "name": "Cotonou",
        "country": "Benin"
      }
    },
    {
      "type": "Feature",
      "geometry": {
        "type": "Point",
        "coordinates": [
          -88.200000,
          17.516667
        ]
      },
      "properties": {
        "id": "78584",
        "name": "Belize / Landivar",
        "country": "Belize"
      }
    },
    {
      "type": "Feature",
      "geometry": {
        "type": "Point",
        "coordinates": [
          -87.500000,
          17.183056
        ]
      },
      "properties": {
        "id": "78588",
        "name": "Half Moon Caye",
        "country": "Belize"
      }
    },
    {
      "type": "Feature",
      "geometry": {
        "type": "Point",
        "coordinates": [
          -88.250000,
          16.100000
        ]
      },
      "properties": {
        "id": "78596",
        "name": "Hunting Caye",
        "country": "Belize"
      }
    },
    {
      "type": "Feature",
      "geometry": {
        "type": "Point",
        "coordinates": [
          2.652222,
          51.088056
        ]
      },
      "properties": {
        "id": "06400",
        "icao": "EBFN",
        "name": "Koksijde",
        "country": "Belgium"
      }
    },
    {
      "type": "Feature",
      "geometry": {
        "type": "Point",
        "coordinates": [
          2.887222,
          51.200278
        ]
      },
      "properties": {
        "id": "06407",
        "icao": "EBOS",
        "name": "Oostende Airport ",
        "country": "Belgium"
      }
    },
    {
      "type": "Feature",
      "geometry": {
        "type": "Point",
        "coordinates": [
          2.916667,
          51.233056
        ]
      },
      "properties": {
        "id": "06408",
        "name": "Oostende Pier ",
        "country": "Belgium"
      }
    },
    {
      "type": "Feature",
      "geometry": {
        "type": "Point",
        "coordinates": [
          3.064167,
          51.191667
        ]
      },
      "properties": {
        "id": "06410",
        "name": "Radar Jabbeke",
        "country": "Belgium"
      }
    },
    {
      "type": "Feature",
      "geometry": {
        "type": "Point",
        "coordinates": [
          3.121667,
          50.903889
        ]
      },
      "properties": {
        "id": "06414",
        "name": "Beitem",
        "country": "Belgium"
      }
    },
    {
      "type": "Feature",
      "geometry": {
        "type": "Point",
        "coordinates": [
          3.201667,
          51.346944
        ]
      },
      "properties": {
        "id": "06418",
        "name": "Zeebrugge",
        "country": "Belgium"
      }
    },
    {
      "type": "Feature",
      "geometry": {
        "type": "Point",
        "coordinates": [
          3.669444,
          50.940556
        ]
      },
      "properties": {
        "id": "06428",
        "icao": "EBMT",
        "name": "Semmerzake",
        "country": "Belgium"
      }
    },
    {
      "type": "Feature",
      "geometry": {
        "type": "Point",
        "coordinates": [
          3.831389,
          50.571944
        ]
      },
      "properties": {
        "id": "06432",
        "icao": "EBCV",
        "name": "Chievres",
        "country": "Belgium"
      }
    },
    {
      "type": "Feature",
      "geometry": {
        "type": "Point",
        "coordinates": [
          3.815556,
          50.980278
        ]
      },
      "properties": {
        "id": "06434",
        "name": "Melle",
        "country": "Belgium"
      }
    },
    {
      "type": "Feature",
      "geometry": {
        "type": "Point",
        "coordinates": [
          4.363889,
          51.324444
        ]
      },
      "properties": {
        "id": "06438",
        "name": "Stabroek",
        "country": "Belgium"
      }
    },
    {
      "type": "Feature",
      "geometry": {
        "type": "Point",
        "coordinates": [
          4.524444,
          51.075000
        ]
      },
      "properties": {
        "id": "06439",
        "name": "Sint-Katelijne-Waver",
        "country": "Belgium"
      }
    },
    {
      "type": "Feature",
      "geometry": {
        "type": "Point",
        "coordinates": [
          4.358056,
          50.796667
        ]
      },
      "properties": {
        "id": "06447",
        "name": "Uccle",
        "country": "Belgium"
      }
    },
    {
      "type": "Feature",
      "geometry": {
        "type": "Point",
        "coordinates": [
          4.500000,
          50.900000
        ]
      },
      "properties": {
        "id": "06448",
        "icao": "EBMB",
        "name": "Melsbroek Bel-Afb ",
        "country": "Belgium"
      }
    },
    {
      "type": "Feature",
      "geometry": {
        "type": "Point",
        "coordinates": [
          4.440000,
          50.454167
        ]
      },
      "properties": {
        "id": "06449",
        "icao": "EBCI",
        "name": "Charleroi / Gosselies",
        "country": "Belgium"
      }
    },
    {
      "type": "Feature",
      "geometry": {
        "type": "Point",
        "coordinates": [
          4.457778,
          51.190278
        ]
      },
      "properties": {
        "id": "06450",
        "icao": "EBAW",
        "name": "Antwerpen / Deurne",
        "country": "Belgium"
      }
    },
    {
      "type": "Feature",
      "geometry": {
        "type": "Point",
        "coordinates": [
          4.526944,
          50.896389
        ]
      },
      "properties": {
        "id": "06451",
        "icao": "EBBR",
        "name": "Bruxelles National",
        "country": "Belgium"
      }
    },
    {
      "type": "Feature",
      "geometry": {
        "type": "Point",
        "coordinates": [
          4.594167,
          50.095556
        ]
      },
      "properties": {
        "id": "06455",
        "name": "Dourbes",
        "country": "Belgium"
      }
    },
    {
      "type": "Feature",
      "geometry": {
        "type": "Point",
        "coordinates": [
          4.653056,
          50.234167
        ]
      },
      "properties": {
        "id": "06456",
        "icao": "EBFS",
        "name": "Florennes",
        "country": "Belgium"
      }
    },
    {
      "type": "Feature",
      "geometry": {
        "type": "Point",
        "coordinates": [
          4.763056,
          50.745556
        ]
      },
      "properties": {
        "id": "06458",
        "icao": "EBBE",
        "name": "Beauvechain",
        "country": "Belgium"
      }
    },
    {
      "type": "Feature",
      "geometry": {
        "type": "Point",
        "coordinates": [
          4.689167,
          50.581667
        ]
      },
      "properties": {
        "id": "06459",
        "name": "Ernage",
        "country": "Belgium"
      }
    },
    {
      "type": "Feature",
      "geometry": {
        "type": "Point",
        "coordinates": [
          5.026944,
          51.221389
        ]
      },
      "properties": {
        "id": "06464",
        "name": "Retie",
        "country": "Belgium"
      }
    },
    {
      "type": "Feature",
      "geometry": {
        "type": "Point",
        "coordinates": [
          5.255556,
          50.193333
        ]
      },
      "properties": {
        "id": "06472",
        "name": "Humain",
        "country": "Belgium"
      }
    },
    {
      "type": "Feature",
      "geometry": {
        "type": "Point",
        "coordinates": [
          5.403889,
          50.038889
        ]
      },
      "properties": {
        "id": "06476",
        "icao": "EBSU",
        "name": "St-Hubert",
        "country": "Belgium"
      }
    },
    {
      "type": "Feature",
      "geometry": {
        "type": "Point",
        "coordinates": [
          5.450278,
          50.915556
        ]
      },
      "properties": {
        "id": "06477",
        "name": "Diepenbeek",
        "country": "Belgium"
      }
    },
    {
      "type": "Feature",
      "geometry": {
        "type": "Point",
        "coordinates": [
          5.455556,
          50.645556
        ]
      },
      "properties": {
        "id": "06478",
        "icao": "EBLG",
        "name": "Bierset",
        "country": "Belgium"
      }
    },
    {
      "type": "Feature",
      "geometry": {
        "type": "Point",
        "coordinates": [
          5.462778,
          51.168889
        ]
      },
      "properties": {
        "id": "06479",
        "icao": "EBBL",
        "name": "Kleine Brogel",
        "country": "Belgium"
      }
    },
    {
      "type": "Feature",
      "geometry": {
        "type": "Point",
        "coordinates": [
          5.500000,
          50.933056
        ]
      },
      "properties": {
        "id": "06481",
        "icao": "EBZW",
        "name": "Genk",
        "country": "Belgium"
      }
    },
    {
      "type": "Feature",
      "geometry": {
        "type": "Point",
        "coordinates": [
          5.504167,
          49.913333
        ]
      },
      "properties": {
        "id": "06482",
        "name": "Radar Wideumont",
        "country": "Belgium"
      }
    },
    {
      "type": "Feature",
      "geometry": {
        "type": "Point",
        "coordinates": [
          5.587500,
          49.620278
        ]
      },
      "properties": {
        "id": "06484",
        "name": "Buzenol",
        "country": "Belgium"
      }
    },
    {
      "type": "Feature",
      "geometry": {
        "type": "Point",
        "coordinates": [
          5.910000,
          50.478333
        ]
      },
      "properties": {
        "id": "06490",
        "icao": "EBSP",
        "name": "Spa / La Sauveniere",
        "country": "Belgium"
      }
    },
    {
      "type": "Feature",
      "geometry": {
        "type": "Point",
        "coordinates": [
          6.073056,
          50.510556
        ]
      },
      "properties": {
        "id": "06494",
        "name": "Mont-Rigi",
        "country": "Belgium"
      }
    },
    {
      "type": "Feature",
      "geometry": {
        "type": "Point",
        "coordinates": [
          6.181389,
          50.481944
        ]
      },
      "properties": {
        "id": "06496",
        "icao": "EBLB",
        "name": "Elsenborn",
        "country": "Belgium"
      }
    },
    {
      "type": "Feature",
      "geometry": {
        "type": "Point",
        "coordinates": [
          27.456667,
          55.363056
        ]
      },
      "properties": {
        "id": "26643",
        "name": "Sarcovschina",
        "country": "Belarus"
      }
    },
    {
      "type": "Feature",
      "geometry": {
        "type": "Point",
        "coordinates": [
          26.306667,
          55.048889
        ]
      },
      "properties": {
        "id": "26645",
        "name": "Lyntupy",
        "country": "Belarus"
      }
    },
    {
      "type": "Feature",
      "geometry": {
        "type": "Point",
        "coordinates": [
          28.751667,
          55.474444
        ]
      },
      "properties": {
        "id": "26653",
        "name": "Polock",
        "country": "Belarus"
      }
    },
    {
      "type": "Feature",
      "geometry": {
        "type": "Point",
        "coordinates": [
          27.760556,
          54.886944
        ]
      },
      "properties": {
        "id": "26657",
        "name": "Dokshitsy",
        "country": "Belarus"
      }
    },
    {
      "type": "Feature",
      "geometry": {
        "type": "Point",
        "coordinates": [
          28.704444,
          54.880000
        ]
      },
      "properties": {
        "id": "26659",
        "name": "Lepel",
        "country": "Belarus"
      }
    },
    {
      "type": "Feature",
      "geometry": {
        "type": "Point",
        "coordinates": [
          30.249167,
          55.252778
        ]
      },
      "properties": {
        "id": "26666",
        "icao": "UMII",
        "name": "Vitebsk",
        "country": "Belarus"
      }
    },
    {
      "type": "Feature",
      "geometry": {
        "type": "Point",
        "coordinates": [
          29.687500,
          54.804167
        ]
      },
      "properties": {
        "id": "26668",
        "name": "Senno",
        "country": "Belarus"
      }
    },
    {
      "type": "Feature",
      "geometry": {
        "type": "Point",
        "coordinates": [
          28.497778,
          54.265556
        ]
      },
      "properties": {
        "id": "26759",
        "name": "Borisov",
        "country": "Belarus"
      }
    },
    {
      "type": "Feature",
      "geometry": {
        "type": "Point",
        "coordinates": [
          30.443889,
          54.502778
        ]
      },
      "properties": {
        "id": "26763",
        "name": "Orsha",
        "country": "Belarus"
      }
    },
    {
      "type": "Feature",
      "geometry": {
        "type": "Point",
        "coordinates": [
          30.943889,
          54.303889
        ]
      },
      "properties": {
        "id": "26774",
        "name": "Gorki",
        "country": "Belarus"
      }
    },
    {
      "type": "Feature",
      "geometry": {
        "type": "Point",
        "coordinates": [
          24.055556,
          53.601944
        ]
      },
      "properties": {
        "id": "26825",
        "name": "Grodno",
        "country": "Belarus"
      }
    },
    {
      "type": "Feature",
      "geometry": {
        "type": "Point",
        "coordinates": [
          25.323056,
          53.901944
        ]
      },
      "properties": {
        "id": "26832",
        "name": "Lida",
        "country": "Belarus"
      }
    },
    {
      "type": "Feature",
      "geometry": {
        "type": "Point",
        "coordinates": [
          27.635278,
          53.928333
        ]
      },
      "properties": {
        "id": "26850",
        "icao": "UMMS",
        "name": "Minsk",
        "country": "Belarus"
      }
    },
    {
      "type": "Feature",
      "geometry": {
        "type": "Point",
        "coordinates": [
          28.997778,
          53.828056
        ]
      },
      "properties": {
        "id": "26853",
        "name": "Berezino",
        "country": "Belarus"
      }
    },
    {
      "type": "Feature",
      "geometry": {
        "type": "Point",
        "coordinates": [
          28.140833,
          53.491667
        ]
      },
      "properties": {
        "id": "26855",
        "name": "Mariyna Gorka",
        "country": "Belarus"
      }
    },
    {
      "type": "Feature",
      "geometry": {
        "type": "Point",
        "coordinates": [
          30.095833,
          53.955556
        ]
      },
      "properties": {
        "id": "26863",
        "name": "Mogilev",
        "country": "Belarus"
      }
    },
    {
      "type": "Feature",
      "geometry": {
        "type": "Point",
        "coordinates": [
          29.311667,
          53.494167
        ]
      },
      "properties": {
        "id": "26864",
        "name": "Klicev",
        "country": "Belarus"
      }
    },
    {
      "type": "Feature",
      "geometry": {
        "type": "Point",
        "coordinates": [
          31.003333,
          53.450833
        ]
      },
      "properties": {
        "id": "26878",
        "name": "Slavgorod",
        "country": "Belarus"
      }
    },
    {
      "type": "Feature",
      "geometry": {
        "type": "Point",
        "coordinates": [
          32.070833,
          53.358333
        ]
      },
      "properties": {
        "id": "26887",
        "name": "Kostjvkovici",
        "country": "Belarus"
      }
    },
    {
      "type": "Feature",
      "geometry": {
        "type": "Point",
        "coordinates": [
          25.971667,
          53.131667
        ]
      },
      "properties": {
        "id": "26941",
        "name": "Baranovici",
        "country": "Belarus"
      }
    },
    {
      "type": "Feature",
      "geometry": {
        "type": "Point",
        "coordinates": [
          27.551667,
          53.053056
        ]
      },
      "properties": {
        "id": "26951",
        "name": "Sluck",
        "country": "Belarus"
      }
    },
    {
      "type": "Feature",
      "geometry": {
        "type": "Point",
        "coordinates": [
          29.126667,
          53.208333
        ]
      },
      "properties": {
        "id": "26961",
        "name": "Bobruisk",
        "country": "Belarus"
      }
    },
    {
      "type": "Feature",
      "geometry": {
        "type": "Point",
        "coordinates": [
          30.043333,
          52.894167
        ]
      },
      "properties": {
        "id": "26966",
        "name": "Zlobin",
        "country": "Belarus"
      }
    },
    {
      "type": "Feature",
      "geometry": {
        "type": "Point",
        "coordinates": [
          26.111667,
          52.121944
        ]
      },
      "properties": {
        "id": "33019",
        "name": "Pinsk",
        "country": "Belarus"
      }
    },
    {
      "type": "Feature",
      "geometry": {
        "type": "Point",
        "coordinates": [
          27.869167,
          52.213889
        ]
      },
      "properties": {
        "id": "33027",
        "name": "Zitkovici",
        "country": "Belarus"
      }
    },
    {
      "type": "Feature",
      "geometry": {
        "type": "Point",
        "coordinates": [
          29.191944,
          52.036389
        ]
      },
      "properties": {
        "id": "33036",
        "name": "Mozyr",
        "country": "Belarus"
      }
    },
    {
      "type": "Feature",
      "geometry": {
        "type": "Point",
        "coordinates": [
          29.840556,
          52.251667
        ]
      },
      "properties": {
        "id": "33038",
        "name": "Vasilevici",
        "country": "Belarus"
      }
    },
    {
      "type": "Feature",
      "geometry": {
        "type": "Point",
        "coordinates": [
          30.247222,
          51.796667
        ]
      },
      "properties": {
        "id": "33124",
        "name": "Bragin",
        "country": "Belarus"
      }
    },
    {
      "type": "Feature",
      "geometry": {
        "type": "Point",
        "coordinates": [
          -59.616667,
          13.150000
        ]
      },
      "properties": {
        "id": "78955",
        "name": "Caribbean Meteoro-Logical Institute",
        "country": "Barbados"
      }
    },
    {
      "type": "Feature",
      "geometry": {
        "type": "Point",
        "coordinates": [
          88.606944,
          26.344167
        ]
      },
      "properties": {
        "id": "41850",
        "name": "Tetulia, Panchagor",
        "country": "Bangladesh"
      }
    },
    {
      "type": "Feature",
      "geometry": {
        "type": "Point",
        "coordinates": [
          88.557500,
          26.085556
        ]
      },
      "properties": {
        "id": "41851",
        "name": "Dimla, Nilphamari",
        "country": "Bangladesh"
      }
    },
    {
      "type": "Feature",
      "geometry": {
        "type": "Point",
        "coordinates": [
          88.400000,
          26.016667
        ]
      },
      "properties": {
        "id": "41852",
        "name": "Thakurgaon",
        "country": "Bangladesh"
      }
    },
    {
      "type": "Feature",
      "geometry": {
        "type": "Point",
        "coordinates": [
          89.545000,
          25.798056
        ]
      },
      "properties": {
        "id": "41856",
        "name": "Rajarhat, Kurigram",
        "country": "Bangladesh"
      }
    },
    {
      "type": "Feature",
      "geometry": {
        "type": "Point",
        "coordinates": [
          88.916667,
          25.750000
        ]
      },
      "properties": {
        "id": "41858",
        "name": "Saidpur",
        "country": "Bangladesh"
      }
    },
    {
      "type": "Feature",
      "geometry": {
        "type": "Point",
        "coordinates": [
          89.233056,
          25.733056
        ]
      },
      "properties": {
        "id": "41859",
        "name": "Rangpur",
        "country": "Bangladesh"
      }
    },
    {
      "type": "Feature",
      "geometry": {
        "type": "Point",
        "coordinates": [
          88.683056,
          25.649722
        ]
      },
      "properties": {
        "id": "41863",
        "name": "Dinajpur",
        "country": "Bangladesh"
      }
    },
    {
      "type": "Feature",
      "geometry": {
        "type": "Point",
        "coordinates": [
          88.536667,
          24.580556
        ]
      },
      "properties": {
        "id": "41881",
        "name": "Badalgachhi, Naogaon",
        "country": "Bangladesh"
      }
    },
    {
      "type": "Feature",
      "geometry": {
        "type": "Point",
        "coordinates": [
          89.366667,
          24.850000
        ]
      },
      "properties": {
        "id": "41883",
        "name": "Bogra",
        "country": "Bangladesh"
      }
    },
    {
      "type": "Feature",
      "geometry": {
        "type": "Point",
        "coordinates": [
          89.950000,
          24.933056
        ]
      },
      "properties": {
        "id": "41884",
        "name": "Jamalpur",
        "country": "Bangladesh"
      }
    },
    {
      "type": "Feature",
      "geometry": {
        "type": "Point",
        "coordinates": [
          90.433056,
          24.716667
        ]
      },
      "properties": {
        "id": "41886",
        "name": "Mymensingh",
        "country": "Bangladesh"
      }
    },
    {
      "type": "Feature",
      "geometry": {
        "type": "Point",
        "coordinates": [
          90.729167,
          24.885833
        ]
      },
      "properties": {
        "id": "41888",
        "name": "Netrokona Sadar",
        "country": "Bangladesh"
      }
    },
    {
      "type": "Feature",
      "geometry": {
        "type": "Point",
        "coordinates": [
          91.883056,
          24.966667
        ]
      },
      "properties": {
        "id": "41890",
        "name": "Sylhet A. P.",
        "country": "Bangladesh"
      }
    },
    {
      "type": "Feature",
      "geometry": {
        "type": "Point",
        "coordinates": [
          91.883056,
          24.899722
        ]
      },
      "properties": {
        "id": "41891",
        "icao": "VGSY",
        "name": "Sylhet",
        "country": "Bangladesh"
      }
    },
    {
      "type": "Feature",
      "geometry": {
        "type": "Point",
        "coordinates": [
          88.700000,
          24.366667
        ]
      },
      "properties": {
        "id": "41895",
        "icao": "VGRJ",
        "name": "Rajshahi",
        "country": "Bangladesh"
      }
    },
    {
      "type": "Feature",
      "geometry": {
        "type": "Point",
        "coordinates": [
          89.229167,
          24.259167
        ]
      },
      "properties": {
        "id": "41897",
        "name": "Tarash, Sirajgani",
        "country": "Bangladesh"
      }
    },
    {
      "type": "Feature",
      "geometry": {
        "type": "Point",
        "coordinates": [
          89.700000,
          24.449722
        ]
      },
      "properties": {
        "id": "41898",
        "name": "Serajgonj",
        "country": "Bangladesh"
      }
    },
    {
      "type": "Feature",
      "geometry": {
        "type": "Point",
        "coordinates": [
          90.939167,
          24.325278
        ]
      },
      "properties": {
        "id": "41902",
        "name": "Nikli, Kishorganj",
        "country": "Bangladesh"
      }
    },
    {
      "type": "Feature",
      "geometry": {
        "type": "Point",
        "coordinates": [
          89.049722,
          24.133056
        ]
      },
      "properties": {
        "id": "41907",
        "icao": "VGIS",
        "name": "Ishurdi",
        "country": "Bangladesh"
      }
    },
    {
      "type": "Feature",
      "geometry": {
        "type": "Point",
        "coordinates": [
          89.933056,
          24.250000
        ]
      },
      "properties": {
        "id": "41909",
        "name": "Tangail",
        "country": "Bangladesh"
      }
    },
    {
      "type": "Feature",
      "geometry": {
        "type": "Point",
        "coordinates": [
          91.733056,
          24.300000
        ]
      },
      "properties": {
        "id": "41915",
        "name": "Srimangal",
        "country": "Bangladesh"
      }
    },
    {
      "type": "Feature",
      "geometry": {
        "type": "Point",
        "coordinates": [
          90.416667,
          23.983056
        ]
      },
      "properties": {
        "id": "41921",
        "name": "Joydevpur",
        "country": "Bangladesh"
      }
    },
    {
      "type": "Feature",
      "geometry": {
        "type": "Point",
        "coordinates": [
          90.400000,
          23.850000
        ]
      },
      "properties": {
        "id": "41922",
        "icao": "VGZR",
        "name": "Kurmitola, Dia",
        "country": "Bangladesh"
      }
    },
    {
      "type": "Feature",
      "geometry": {
        "type": "Point",
        "coordinates": [
          90.383056,
          23.766667
        ]
      },
      "properties": {
        "id": "41923",
        "icao": "VGTJ",
        "name": "Dhaka",
        "country": "Bangladesh"
      }
    },
    {
      "type": "Feature",
      "geometry": {
        "type": "Point",
        "coordinates": [
          88.816667,
          23.649722
        ]
      },
      "properties": {
        "id": "41926",
        "name": "Chuadanga",
        "country": "Bangladesh"
      }
    },
    {
      "type": "Feature",
      "geometry": {
        "type": "Point",
        "coordinates": [
          89.146389,
          23.519722
        ]
      },
      "properties": {
        "id": "41927",
        "name": "Kumarkhali, Kushtia",
        "country": "Bangladesh"
      }
    },
    {
      "type": "Feature",
      "geometry": {
        "type": "Point",
        "coordinates": [
          89.849722,
          23.600000
        ]
      },
      "properties": {
        "id": "41929",
        "name": "Farodpur",
        "country": "Bangladesh"
      }
    },
    {
      "type": "Feature",
      "geometry": {
        "type": "Point",
        "coordinates": [
          91.183056,
          23.433056
        ]
      },
      "properties": {
        "id": "41933",
        "name": "Comilla",
        "country": "Bangladesh"
      }
    },
    {
      "type": "Feature",
      "geometry": {
        "type": "Point",
        "coordinates": [
          89.166667,
          23.183056
        ]
      },
      "properties": {
        "id": "41936",
        "icao": "VGJR",
        "name": "Jessore",
        "country": "Bangladesh"
      }
    },
    {
      "type": "Feature",
      "geometry": {
        "type": "Point",
        "coordinates": [
          89.822500,
          23.013056
        ]
      },
      "properties": {
        "id": "41938",
        "name": "Gopalganj Sadar",
        "country": "Bangladesh"
      }
    },
    {
      "type": "Feature",
      "geometry": {
        "type": "Point",
        "coordinates": [
          90.183056,
          23.166667
        ]
      },
      "properties": {
        "id": "41939",
        "name": "Madaripur",
        "country": "Bangladesh"
      }
    },
    {
      "type": "Feature",
      "geometry": {
        "type": "Point",
        "coordinates": [
          90.700000,
          23.266667
        ]
      },
      "properties": {
        "id": "41941",
        "name": "Chandpur",
        "country": "Bangladesh"
      }
    },
    {
      "type": "Feature",
      "geometry": {
        "type": "Point",
        "coordinates": [
          91.416667,
          23.033056
        ]
      },
      "properties": {
        "id": "41943",
        "name": "Feni",
        "country": "Bangladesh"
      }
    },
    {
      "type": "Feature",
      "geometry": {
        "type": "Point",
        "coordinates": [
          92.064167,
          23.240556
        ]
      },
      "properties": {
        "id": "41944",
        "name": "Dighinala, Khagrachhori",
        "country": "Bangladesh"
      }
    },
    {
      "type": "Feature",
      "geometry": {
        "type": "Point",
        "coordinates": [
          89.083056,
          22.716667
        ]
      },
      "properties": {
        "id": "41946",
        "name": "Satkhira",
        "country": "Bangladesh"
      }
    },
    {
      "type": "Feature",
      "geometry": {
        "type": "Point",
        "coordinates": [
          89.533056,
          22.783056
        ]
      },
      "properties": {
        "id": "41947",
        "name": "Khulna",
        "country": "Bangladesh"
      }
    },
    {
      "type": "Feature",
      "geometry": {
        "type": "Point",
        "coordinates": [
          90.366667,
          22.750000
        ]
      },
      "properties": {
        "id": "41950",
        "name": "Barisal",
        "country": "Bangladesh"
      }
    },
    {
      "type": "Feature",
      "geometry": {
        "type": "Point",
        "coordinates": [
          90.650000,
          22.683056
        ]
      },
      "properties": {
        "id": "41951",
        "name": "Bhola",
        "country": "Bangladesh"
      }
    },
    {
      "type": "Feature",
      "geometry": {
        "type": "Point",
        "coordinates": [
          91.099722,
          22.866667
        ]
      },
      "properties": {
        "id": "41953",
        "name": "Maijdicourt",
        "country": "Bangladesh"
      }
    },
    {
      "type": "Feature",
      "geometry": {
        "type": "Point",
        "coordinates": [
          92.328056,
          20.602778
        ]
      },
      "properties": {
        "id": "41955",
        "name": "Saint Martin, Cox'S Bazar",
        "country": "Bangladesh"
      }
    },
    {
      "type": "Feature",
      "geometry": {
        "type": "Point",
        "coordinates": [
          89.500000,
          22.600000
        ]
      },
      "properties": {
        "id": "41958",
        "name": "Mongla",
        "country": "Bangladesh"
      }
    },
    {
      "type": "Feature",
      "geometry": {
        "type": "Point",
        "coordinates": [
          90.333056,
          22.333056
        ]
      },
      "properties": {
        "id": "41960",
        "name": "Patuakhali",
        "country": "Bangladesh"
      }
    },
    {
      "type": "Feature",
      "geometry": {
        "type": "Point",
        "coordinates": [
          91.099722,
          22.433056
        ]
      },
      "properties": {
        "id": "41963",
        "name": "Hatia",
        "country": "Bangladesh"
      }
    },
    {
      "type": "Feature",
      "geometry": {
        "type": "Point",
        "coordinates": [
          91.433056,
          22.483056
        ]
      },
      "properties": {
        "id": "41964",
        "name": "Sandwip",
        "country": "Bangladesh"
      }
    },
    {
      "type": "Feature",
      "geometry": {
        "type": "Point",
        "coordinates": [
          91.700000,
          22.583056
        ]
      },
      "properties": {
        "id": "41965",
        "name": "Sitakundu",
        "country": "Bangladesh"
      }
    },
    {
      "type": "Feature",
      "geometry": {
        "type": "Point",
        "coordinates": [
          92.200000,
          22.533056
        ]
      },
      "properties": {
        "id": "41966",
        "name": "Rangamati",
        "country": "Bangladesh"
      }
    },
    {
      "type": "Feature",
      "geometry": {
        "type": "Point",
        "coordinates": [
          92.233056,
          22.483056
        ]
      },
      "properties": {
        "id": "41967",
        "name": "Kaptai",
        "country": "Bangladesh"
      }
    },
    {
      "type": "Feature",
      "geometry": {
        "type": "Point",
        "coordinates": [
          91.816667,
          22.350000
        ]
      },
      "properties": {
        "id": "41977",
        "name": "Chittagong Ambagan ",
        "country": "Bangladesh"
      }
    },
    {
      "type": "Feature",
      "geometry": {
        "type": "Point",
        "coordinates": [
          91.816667,
          22.266667
        ]
      },
      "properties": {
        "id": "41978",
        "icao": "VGEG",
        "name": "Chittagong Patenga ",
        "country": "Bangladesh"
      }
    },
    {
      "type": "Feature",
      "geometry": {
        "type": "Point",
        "coordinates": [
          92.216667,
          22.199444
        ]
      },
      "properties": {
        "id": "41980",
        "name": "Bandarban Sadar",
        "country": "Bangladesh"
      }
    },
    {
      "type": "Feature",
      "geometry": {
        "type": "Point",
        "coordinates": [
          90.233056,
          21.983056
        ]
      },
      "properties": {
        "id": "41984",
        "name": "Khepupara",
        "country": "Bangladesh"
      }
    },
    {
      "type": "Feature",
      "geometry": {
        "type": "Point",
        "coordinates": [
          91.849722,
          21.816667
        ]
      },
      "properties": {
        "id": "41989",
        "name": "Kutubdia",
        "country": "Bangladesh"
      }
    },
    {
      "type": "Feature",
      "geometry": {
        "type": "Point",
        "coordinates": [
          92.299722,
          20.866667
        ]
      },
      "properties": {
        "id": "41998",
        "name": "Teknaf",
        "country": "Bangladesh"
      }
    },
    {
      "type": "Feature",
      "geometry": {
        "type": "Point",
        "coordinates": [
          50.649722,
          26.266667
        ]
      },
      "properties": {
        "id": "41150",
        "icao": "OBBI",
        "name": "Bahrain International Airport ",
        "country": "Bahrain"
      }
    },
    {
      "type": "Feature",
      "geometry": {
        "type": "Point",
        "coordinates": [
          50.330833,
          26.185278
        ]
      },
      "properties": {
        "id": "41153",
        "name": "King Fahad Causeway",
        "country": "Bahrain"
      }
    },
    {
      "type": "Feature",
      "geometry": {
        "type": "Point",
        "coordinates": [
          50.500000,
          26.016667
        ]
      },
      "properties": {
        "id": "41155",
        "name": "F1 (Formula 1)",
        "country": "Bahrain"
      }
    },
    {
      "type": "Feature",
      "geometry": {
        "type": "Point",
        "coordinates": [
          -78.966667,
          26.700000
        ]
      },
      "properties": {
        "id": "78061",
        "icao": "MYGW",
        "name": "West End, Grand Bahama",
        "country": "Bahamas, The"
      }
    },
    {
      "type": "Feature",
      "geometry": {
        "type": "Point",
        "coordinates": [
          -78.700000,
          26.550000
        ]
      },
      "properties": {
        "id": "78062",
        "icao": "MYGF",
        "name": "Freeport, Grand Bahama",
        "country": "Bahamas, The"
      }
    },
    {
      "type": "Feature",
      "geometry": {
        "type": "Point",
        "coordinates": [
          -77.066667,
          26.516667
        ]
      },
      "properties": {
        "id": "78065",
        "name": "Marsh Harbour, Abaco",
        "country": "Bahamas, The"
      }
    },
    {
      "type": "Feature",
      "geometry": {
        "type": "Point",
        "coordinates": [
          -77.333333,
          26.750000
        ]
      },
      "properties": {
        "id": "78066",
        "name": "Green Turtle Cay, Abaco",
        "country": "Bahamas, The"
      }
    },
    {
      "type": "Feature",
      "geometry": {
        "type": "Point",
        "coordinates": [
          -79.250000,
          25.700000
        ]
      },
      "properties": {
        "id": "78069",
        "name": "South Bimini, Binimi",
        "country": "Bahamas, The"
      }
    },
    {
      "type": "Feature",
      "geometry": {
        "type": "Point",
        "coordinates": [
          -79.300000,
          25.733333
        ]
      },
      "properties": {
        "id": "78070",
        "icao": "MYBS",
        "name": "Alice Town, Bimini",
        "country": "Bahamas, The"
      }
    },
    {
      "type": "Feature",
      "geometry": {
        "type": "Point",
        "coordinates": [
          -77.466667,
          25.050000
        ]
      },
      "properties": {
        "id": "78073",
        "icao": "MYNN",
        "name": "Nassau Airport",
        "country": "Bahamas, The"
      }
    },
    {
      "type": "Feature",
      "geometry": {
        "type": "Point",
        "coordinates": [
          -76.666667,
          25.483333
        ]
      },
      "properties": {
        "id": "78075",
        "name": "North Eleuthera, Eleuthera",
        "country": "Bahamas, The"
      }
    },
    {
      "type": "Feature",
      "geometry": {
        "type": "Point",
        "coordinates": [
          -76.633333,
          25.500000
        ]
      },
      "properties": {
        "id": "78077",
        "name": "Dunmore Town, Harbouris., Eleuthera",
        "country": "Bahamas, The"
      }
    },
    {
      "type": "Feature",
      "geometry": {
        "type": "Point",
        "coordinates": [
          -76.150000,
          24.750000
        ]
      },
      "properties": {
        "id": "78080",
        "name": "Rock Sound, Eleuthera",
        "country": "Bahamas, The"
      }
    },
    {
      "type": "Feature",
      "geometry": {
        "type": "Point",
        "coordinates": [
          -77.566667,
          24.150000
        ]
      },
      "properties": {
        "id": "78084",
        "name": "Congo Town, Andros",
        "country": "Bahamas, The"
      }
    },
    {
      "type": "Feature",
      "geometry": {
        "type": "Point",
        "coordinates": [
          -77.550000,
          24.083333
        ]
      },
      "properties": {
        "id": "78086",
        "name": "Kemp's Bay, Andros",
        "country": "Bahamas, The"
      }
    },
    {
      "type": "Feature",
      "geometry": {
        "type": "Point",
        "coordinates": [
          -75.416667,
          24.283333
        ]
      },
      "properties": {
        "id": "78087",
        "name": "The Bight, Cat Island",
        "country": "Bahamas, The"
      }
    },
    {
      "type": "Feature",
      "geometry": {
        "type": "Point",
        "coordinates": [
          -74.533333,
          24.050000
        ]
      },
      "properties": {
        "id": "78088",
        "icao": "MYSM",
        "name": "Cockburn Town, San Salvador",
        "country": "Bahamas, The"
      }
    },
    {
      "type": "Feature",
      "geometry": {
        "type": "Point",
        "coordinates": [
          -74.500000,
          24.066667
        ]
      },
      "properties": {
        "id": "78089",
        "name": "Cockburn Town, San Salvador",
        "country": "Bahamas, The"
      }
    },
    {
      "type": "Feature",
      "geometry": {
        "type": "Point",
        "coordinates": [
          -75.866667,
          23.550000
        ]
      },
      "properties": {
        "id": "78091",
        "name": "Moss Town, Exuma",
        "country": "Bahamas, The"
      }
    },
    {
      "type": "Feature",
      "geometry": {
        "type": "Point",
        "coordinates": [
          -75.766667,
          23.475000
        ]
      },
      "properties": {
        "id": "78092",
        "icao": "MYEG",
        "name": "Georgetown, Exuma",
        "country": "Bahamas, The"
      }
    },
    {
      "type": "Feature",
      "geometry": {
        "type": "Point",
        "coordinates": [
          -74.966667,
          23.100000
        ]
      },
      "properties": {
        "id": "78094",
        "name": "Deadman's Cay, Long Island",
        "country": "Bahamas, The"
      }
    },
    {
      "type": "Feature",
      "geometry": {
        "type": "Point",
        "coordinates": [
          -74.966667,
          23.100000
        ]
      },
      "properties": {
        "id": "78095",
        "name": "Clarence Town, Long Island",
        "country": "Bahamas, The"
      }
    },
    {
      "type": "Feature",
      "geometry": {
        "type": "Point",
        "coordinates": [
          -75.733333,
          22.200000
        ]
      },
      "properties": {
        "id": "78101",
        "name": "Duncan Town, Ragged Island",
        "country": "Bahamas, The"
      }
    },
    {
      "type": "Feature",
      "geometry": {
        "type": "Point",
        "coordinates": [
          -74.233333,
          22.750000
        ]
      },
      "properties": {
        "id": "78103",
        "name": "Colonel Hill, Crooked Island",
        "country": "Bahamas, The"
      }
    },
    {
      "type": "Feature",
      "geometry": {
        "type": "Point",
        "coordinates": [
          -74.233333,
          22.750000
        ]
      },
      "properties": {
        "id": "78104",
        "name": "Church Grove, Crooked Island",
        "country": "Bahamas, The"
      }
    },
    {
      "type": "Feature",
      "geometry": {
        "type": "Point",
        "coordinates": [
          -73.016667,
          22.383333
        ]
      },
      "properties": {
        "id": "78108",
        "name": "Abraham's Bay, Mayaguana",
        "country": "Bahamas, The"
      }
    },
    {
      "type": "Feature",
      "geometry": {
        "type": "Point",
        "coordinates": [
          -72.966667,
          22.366667
        ]
      },
      "properties": {
        "id": "78109",
        "name": "Abraham Bay, Mayaguana",
        "country": "Bahamas, The"
      }
    },
    {
      "type": "Feature",
      "geometry": {
        "type": "Point",
        "coordinates": [
          -73.650000,
          20.950000
        ]
      },
      "properties": {
        "id": "78120",
        "name": "Matthew Town, Inagua",
        "country": "Bahamas, The"
      }
    },
    {
      "type": "Feature",
      "geometry": {
        "type": "Point",
        "coordinates": [
          -73.683333,
          20.950000
        ]
      },
      "properties": {
        "id": "78121",
        "icao": "MYIG",
        "name": "Matthew Town, Inagua",
        "country": "Bahamas, The"
      }
    },
    {
      "type": "Feature",
      "geometry": {
        "type": "Point",
        "coordinates": [
          46.649722,
          41.666667
        ]
      },
      "properties": {
        "id": "37575",
        "name": "Zakatala",
        "country": "Azerbaijan"
      }
    },
    {
      "type": "Feature",
      "geometry": {
        "type": "Point",
        "coordinates": [
          46.716667,
          41.649722
        ]
      },
      "properties": {
        "id": "37579",
        "name": "Alibay",
        "country": "Azerbaijan"
      }
    },
    {
      "type": "Feature",
      "geometry": {
        "type": "Point",
        "coordinates": [
          47.066667,
          41.533056
        ]
      },
      "properties": {
        "id": "37590",
        "name": "Saribash",
        "country": "Azerbaijan"
      }
    },
    {
      "type": "Feature",
      "geometry": {
        "type": "Point",
        "coordinates": [
          45.466667,
          41.299722
        ]
      },
      "properties": {
        "id": "37636",
        "name": "Jeyranchel",
        "country": "Azerbaijan"
      }
    },
    {
      "type": "Feature",
      "geometry": {
        "type": "Point",
        "coordinates": [
          45.416667,
          41.133056
        ]
      },
      "properties": {
        "id": "37639",
        "name": "Agstapha Aerodrome",
        "country": "Azerbaijan"
      }
    },
    {
      "type": "Feature",
      "geometry": {
        "type": "Point",
        "coordinates": [
          43.549722,
          41.100000
        ]
      },
      "properties": {
        "id": "37642",
        "name": "Tovuz",
        "country": "Azerbaijan"
      }
    },
    {
      "type": "Feature",
      "geometry": {
        "type": "Point",
        "coordinates": [
          47.166667,
          41.216667
        ]
      },
      "properties": {
        "id": "37661",
        "name": "Shaki",
        "country": "Azerbaijan"
      }
    },
    {
      "type": "Feature",
      "geometry": {
        "type": "Point",
        "coordinates": [
          47.466667,
          41.066667
        ]
      },
      "properties": {
        "id": "37668",
        "name": "Oguz",
        "country": "Azerbaijan"
      }
    },
    {
      "type": "Feature",
      "geometry": {
        "type": "Point",
        "coordinates": [
          48.700000,
          41.783056
        ]
      },
      "properties": {
        "id": "37670",
        "name": "Nabran",
        "country": "Azerbaijan"
      }
    },
    {
      "type": "Feature",
      "geometry": {
        "type": "Point",
        "coordinates": [
          48.883056,
          41.416667
        ]
      },
      "properties": {
        "id": "37673",
        "name": "Khachmaz Aerodrome",
        "country": "Azerbaijan"
      }
    },
    {
      "type": "Feature",
      "geometry": {
        "type": "Point",
        "coordinates": [
          48.233056,
          41.216667
        ]
      },
      "properties": {
        "id": "37674",
        "name": "Giriz",
        "country": "Azerbaijan"
      }
    },
    {
      "type": "Feature",
      "geometry": {
        "type": "Point",
        "coordinates": [
          48.516667,
          41.366667
        ]
      },
      "properties": {
        "id": "37675",
        "name": "Kuba",
        "country": "Azerbaijan"
      }
    },
    {
      "type": "Feature",
      "geometry": {
        "type": "Point",
        "coordinates": [
          48.133056,
          41.183056
        ]
      },
      "properties": {
        "id": "37676",
        "name": "Khinalig",
        "country": "Azerbaijan"
      }
    },
    {
      "type": "Feature",
      "geometry": {
        "type": "Point",
        "coordinates": [
          48.700000,
          41.000000
        ]
      },
      "properties": {
        "id": "37677",
        "name": "Khaltan",
        "country": "Azerbaijan"
      }
    },
    {
      "type": "Feature",
      "geometry": {
        "type": "Point",
        "coordinates": [
          45.816667,
          40.683056
        ]
      },
      "properties": {
        "id": "37729",
        "name": "Gadabay",
        "country": "Azerbaijan"
      }
    },
    {
      "type": "Feature",
      "geometry": {
        "type": "Point",
        "coordinates": [
          46.033056,
          40.833056
        ]
      },
      "properties": {
        "id": "37734",
        "name": "Shamkir",
        "country": "Azerbaijan"
      }
    },
    {
      "type": "Feature",
      "geometry": {
        "type": "Point",
        "coordinates": [
          46.416667,
          40.716667
        ]
      },
      "properties": {
        "id": "37735",
        "name": "Gyanja",
        "country": "Azerbaijan"
      }
    },
    {
      "type": "Feature",
      "geometry": {
        "type": "Point",
        "coordinates": [
          46.399722,
          40.733056
        ]
      },
      "properties": {
        "id": "37736",
        "name": "Gyanca Airport",
        "country": "Azerbaijan"
      }
    },
    {
      "type": "Feature",
      "geometry": {
        "type": "Point",
        "coordinates": [
          47.866667,
          40.983056
        ]
      },
      "properties": {
        "id": "37740",
        "name": "Kabala",
        "country": "Azerbaijan"
      }
    },
    {
      "type": "Feature",
      "geometry": {
        "type": "Point",
        "coordinates": [
          47.049722,
          40.766667
        ]
      },
      "properties": {
        "id": "37744",
        "name": "Mingachevir",
        "country": "Azerbaijan"
      }
    },
    {
      "type": "Feature",
      "geometry": {
        "type": "Point",
        "coordinates": [
          46.799722,
          40.600000
        ]
      },
      "properties": {
        "id": "37746",
        "name": "Naftalan Airport",
        "country": "Azerbaijan"
      }
    },
    {
      "type": "Feature",
      "geometry": {
        "type": "Point",
        "coordinates": [
          47.149722,
          40.616667
        ]
      },
      "properties": {
        "id": "37747",
        "name": "Evlakh Airport",
        "country": "Azerbaijan"
      }
    },
    {
      "type": "Feature",
      "geometry": {
        "type": "Point",
        "coordinates": [
          47.750000,
          40.649722
        ]
      },
      "properties": {
        "id": "37749",
        "name": "Geokchay",
        "country": "Azerbaijan"
      }
    },
    {
      "type": "Feature",
      "geometry": {
        "type": "Point",
        "coordinates": [
          48.133056,
          40.783056
        ]
      },
      "properties": {
        "id": "37750",
        "name": "Ismailly",
        "country": "Azerbaijan"
      }
    },
    {
      "type": "Feature",
      "geometry": {
        "type": "Point",
        "coordinates": [
          48.933056,
          40.866667
        ]
      },
      "properties": {
        "id": "37753",
        "name": "Altiagach",
        "country": "Azerbaijan"
      }
    },
    {
      "type": "Feature",
      "geometry": {
        "type": "Point",
        "coordinates": [
          48.933056,
          40.533056
        ]
      },
      "properties": {
        "id": "37756",
        "name": "Maraza",
        "country": "Azerbaijan"
      }
    },
    {
      "type": "Feature",
      "geometry": {
        "type": "Point",
        "coordinates": [
          49.633056,
          40.600000
        ]
      },
      "properties": {
        "id": "37769",
        "name": "Sumgait",
        "country": "Azerbaijan"
      }
    },
    {
      "type": "Feature",
      "geometry": {
        "type": "Point",
        "coordinates": [
          45.883056,
          40.500000
        ]
      },
      "properties": {
        "id": "37813",
        "name": "Shamkir Gyol-Gyol",
        "country": "Azerbaijan"
      }
    },
    {
      "type": "Feature",
      "geometry": {
        "type": "Point",
        "coordinates": [
          47.116667,
          40.366667
        ]
      },
      "properties": {
        "id": "37832",
        "name": "Barda",
        "country": "Azerbaijan"
      }
    },
    {
      "type": "Feature",
      "geometry": {
        "type": "Point",
        "coordinates": [
          47.216667,
          40.200000
        ]
      },
      "properties": {
        "id": "37835",
        "name": "Zardab",
        "country": "Azerbaijan"
      }
    },
    {
      "type": "Feature",
      "geometry": {
        "type": "Point",
        "coordinates": [
          48.466667,
          40.016667
        ]
      },
      "properties": {
        "id": "37843",
        "name": "Sabirabad",
        "country": "Azerbaijan"
      }
    },
    {
      "type": "Feature",
      "geometry": {
        "type": "Point",
        "coordinates": [
          48.166667,
          40.333056
        ]
      },
      "properties": {
        "id": "37844",
        "name": "Kurdamir",
        "country": "Azerbaijan"
      }
    },
    {
      "type": "Feature",
      "geometry": {
        "type": "Point",
        "coordinates": [
          48.916667,
          40.016667
        ]
      },
      "properties": {
        "id": "37849",
        "name": "Gazimammad Aerodrome",
        "country": "Azerbaijan"
      }
    },
    {
      "type": "Feature",
      "geometry": {
        "type": "Point",
        "coordinates": [
          49.766667,
          40.366667
        ]
      },
      "properties": {
        "id": "37852",
        "name": "Shubany",
        "country": "Azerbaijan"
      }
    },
    {
      "type": "Feature",
      "geometry": {
        "type": "Point",
        "coordinates": [
          49.983056,
          40.500000
        ]
      },
      "properties": {
        "id": "37853",
        "name": "Baku/Zabrat Airport",
        "country": "Azerbaijan"
      }
    },
    {
      "type": "Feature",
      "geometry": {
        "type": "Point",
        "coordinates": [
          50.000000,
          40.533056
        ]
      },
      "properties": {
        "id": "37860",
        "name": "Mashtaga",
        "country": "Azerbaijan"
      }
    },
    {
      "type": "Feature",
      "geometry": {
        "type": "Point",
        "coordinates": [
          50.066667,
          40.450000
        ]
      },
      "properties": {
        "id": "37864",
        "icao": "UBBB",
        "name": "Baku / Bine Airport",
        "country": "Azerbaijan"
      }
    },
    {
      "type": "Feature",
      "geometry": {
        "type": "Point",
        "coordinates": [
          50.316667,
          40.466667
        ]
      },
      "properties": {
        "id": "37866",
        "name": "Pirallahi",
        "country": "Azerbaijan"
      }
    },
    {
      "type": "Feature",
      "geometry": {
        "type": "Point",
        "coordinates": [
          50.616667,
          40.333056
        ]
      },
      "properties": {
        "id": "37869",
        "name": "Chilov Island",
        "country": "Azerbaijan"
      }
    },
    {
      "type": "Feature",
      "geometry": {
        "type": "Point",
        "coordinates": [
          45.966667,
          39.933056
        ]
      },
      "properties": {
        "id": "37883",
        "name": "Istisu",
        "country": "Azerbaijan"
      }
    },
    {
      "type": "Feature",
      "geometry": {
        "type": "Point",
        "coordinates": [
          46.750000,
          39.983056
        ]
      },
      "properties": {
        "id": "37893",
        "name": "Agdam",
        "country": "Azerbaijan"
      }
    },
    {
      "type": "Feature",
      "geometry": {
        "type": "Point",
        "coordinates": [
          46.750000,
          39.983056
        ]
      },
      "properties": {
        "id": "37895",
        "name": "Khankandy",
        "country": "Azerbaijan"
      }
    },
    {
      "type": "Feature",
      "geometry": {
        "type": "Point",
        "coordinates": [
          46.783056,
          39.899722
        ]
      },
      "properties": {
        "id": "37896",
        "name": "Khojaly Airport",
        "country": "Azerbaijan"
      }
    },
    {
      "type": "Feature",
      "geometry": {
        "type": "Point",
        "coordinates": [
          46.533056,
          39.649722
        ]
      },
      "properties": {
        "id": "37898",
        "name": "Lachin",
        "country": "Azerbaijan"
      }
    },
    {
      "type": "Feature",
      "geometry": {
        "type": "Point",
        "coordinates": [
          46.750000,
          39.766667
        ]
      },
      "properties": {
        "id": "37899",
        "name": "Shusha",
        "country": "Azerbaijan"
      }
    },
    {
      "type": "Feature",
      "geometry": {
        "type": "Point",
        "coordinates": [
          47.100000,
          39.783056
        ]
      },
      "properties": {
        "id": "37901",
        "name": "Khojavand",
        "country": "Azerbaijan"
      }
    },
    {
      "type": "Feature",
      "geometry": {
        "type": "Point",
        "coordinates": [
          47.750000,
          39.766667
        ]
      },
      "properties": {
        "id": "37905",
        "name": "Beylagan Aerodrome",
        "country": "Azerbaijan"
      }
    },
    {
      "type": "Feature",
      "geometry": {
        "type": "Point",
        "coordinates": [
          47.149722,
          39.600000
        ]
      },
      "properties": {
        "id": "37907",
        "name": "Fizuly",
        "country": "Azerbaijan"
      }
    },
    {
      "type": "Feature",
      "geometry": {
        "type": "Point",
        "coordinates": [
          48.533056,
          39.933056
        ]
      },
      "properties": {
        "id": "37912",
        "name": "Jafarkhan",
        "country": "Azerbaijan"
      }
    },
    {
      "type": "Feature",
      "geometry": {
        "type": "Point",
        "coordinates": [
          48.966667,
          39.583056
        ]
      },
      "properties": {
        "id": "37913",
        "name": "Salyan",
        "country": "Azerbaijan"
      }
    },
    {
      "type": "Feature",
      "geometry": {
        "type": "Point",
        "coordinates": [
          48.049722,
          39.866667
        ]
      },
      "properties": {
        "id": "37914",
        "name": "Imishly",
        "country": "Azerbaijan"
      }
    },
    {
      "type": "Feature",
      "geometry": {
        "type": "Point",
        "coordinates": [
          49.399722,
          39.966667
        ]
      },
      "properties": {
        "id": "37923",
        "name": "Alat",
        "country": "Azerbaijan"
      }
    },
    {
      "type": "Feature",
      "geometry": {
        "type": "Point",
        "coordinates": [
          49.250000,
          39.399722
        ]
      },
      "properties": {
        "id": "37925",
        "name": "Neftchala",
        "country": "Azerbaijan"
      }
    },
    {
      "type": "Feature",
      "geometry": {
        "type": "Point",
        "coordinates": [
          45.416667,
          39.200000
        ]
      },
      "properties": {
        "id": "37936",
        "name": "Nakhchivan",
        "country": "Azerbaijan"
      }
    },
    {
      "type": "Feature",
      "geometry": {
        "type": "Point",
        "coordinates": [
          45.566667,
          39.399722
        ]
      },
      "properties": {
        "id": "37941",
        "name": "Shahbuz",
        "country": "Azerbaijan"
      }
    },
    {
      "type": "Feature",
      "geometry": {
        "type": "Point",
        "coordinates": [
          45.983056,
          39.116667
        ]
      },
      "properties": {
        "id": "37946",
        "name": "Paragachay",
        "country": "Azerbaijan"
      }
    },
    {
      "type": "Feature",
      "geometry": {
        "type": "Point",
        "coordinates": [
          45.633056,
          38.950000
        ]
      },
      "properties": {
        "id": "37947",
        "name": "Julfa",
        "country": "Azerbaijan"
      }
    },
    {
      "type": "Feature",
      "geometry": {
        "type": "Point",
        "coordinates": [
          48.383056,
          38.666667
        ]
      },
      "properties": {
        "id": "37952",
        "name": "Kalvaz",
        "country": "Azerbaijan"
      }
    },
    {
      "type": "Feature",
      "geometry": {
        "type": "Point",
        "coordinates": [
          46.016667,
          38.916667
        ]
      },
      "properties": {
        "id": "37957",
        "name": "Ordubad",
        "country": "Azerbaijan"
      }
    },
    {
      "type": "Feature",
      "geometry": {
        "type": "Point",
        "coordinates": [
          46.666667,
          39.000000
        ]
      },
      "properties": {
        "id": "37968",
        "name": "Minjivan",
        "country": "Azerbaijan"
      }
    },
    {
      "type": "Feature",
      "geometry": {
        "type": "Point",
        "coordinates": [
          48.549722,
          39.466667
        ]
      },
      "properties": {
        "id": "37972",
        "name": "Bilasuvar",
        "country": "Azerbaijan"
      }
    },
    {
      "type": "Feature",
      "geometry": {
        "type": "Point",
        "coordinates": [
          48.600000,
          39.700000
        ]
      },
      "properties": {
        "id": "37978",
        "name": "Gyoytapa",
        "country": "Azerbaijan"
      }
    },
    {
      "type": "Feature",
      "geometry": {
        "type": "Point",
        "coordinates": [
          48.833056,
          38.733056
        ]
      },
      "properties": {
        "id": "37985",
        "name": "Lankaran",
        "country": "Azerbaijan"
      }
    },
    {
      "type": "Feature",
      "geometry": {
        "type": "Point",
        "coordinates": [
          48.883056,
          38.450000
        ]
      },
      "properties": {
        "id": "37989",
        "name": "Astara",
        "country": "Azerbaijan"
      }
    },
    {
      "type": "Feature",
      "geometry": {
        "type": "Point",
        "coordinates": [
          13.670833,
          48.105556
        ]
      },
      "properties": {
        "id": "11001",
        "name": "Wolfsegg",
        "country": "Austria"
      }
    },
    {
      "type": "Feature",
      "geometry": {
        "type": "Point",
        "coordinates": [
          13.483333,
          48.216667
        ]
      },
      "properties": {
        "id": "11003",
        "name": "Ried Im Innkreis",
        "country": "Austria"
      }
    },
    {
      "type": "Feature",
      "geometry": {
        "type": "Point",
        "coordinates": [
          13.375833,
          48.330833
        ]
      },
      "properties": {
        "id": "11004",
        "name": "Reichersberg",
        "country": "Austria"
      }
    },
    {
      "type": "Feature",
      "geometry": {
        "type": "Point",
        "coordinates": [
          14.004167,
          48.567222
        ]
      },
      "properties": {
        "id": "11008",
        "name": "Rohrbach",
        "country": "Austria"
      }
    },
    {
      "type": "Feature",
      "geometry": {
        "type": "Point",
        "coordinates": [
          14.188056,
          48.235278
        ]
      },
      "properties": {
        "id": "11010",
        "icao": "LOWL",
        "name": "Linz / Hoersching-Flughafen",
        "country": "Austria"
      }
    },
    {
      "type": "Feature",
      "geometry": {
        "type": "Point",
        "coordinates": [
          14.130833,
          48.054722
        ]
      },
      "properties": {
        "id": "11012",
        "name": "Kremsmuenster",
        "country": "Austria"
      }
    },
    {
      "type": "Feature",
      "geometry": {
        "type": "Point",
        "coordinates": [
          14.500000,
          48.516667
        ]
      },
      "properties": {
        "id": "11017",
        "name": "Freistadt",
        "country": "Austria"
      }
    },
    {
      "type": "Feature",
      "geometry": {
        "type": "Point",
        "coordinates": [
          14.895000,
          48.108889
        ]
      },
      "properties": {
        "id": "11018",
        "name": "Amstetten",
        "country": "Austria"
      }
    },
    {
      "type": "Feature",
      "geometry": {
        "type": "Point",
        "coordinates": [
          15.366667,
          48.690556
        ]
      },
      "properties": {
        "id": "11019",
        "name": "Allentsteig",
        "country": "Austria"
      }
    },
    {
      "type": "Feature",
      "geometry": {
        "type": "Point",
        "coordinates": [
          15.203333,
          48.617778
        ]
      },
      "properties": {
        "id": "11020",
        "name": "Zwettl",
        "country": "Austria"
      }
    },
    {
      "type": "Feature",
      "geometry": {
        "type": "Point",
        "coordinates": [
          15.038056,
          48.954722
        ]
      },
      "properties": {
        "id": "11021",
        "name": "Litschau",
        "country": "Austria"
      }
    },
    {
      "type": "Feature",
      "geometry": {
        "type": "Point",
        "coordinates": [
          14.898333,
          48.701944
        ]
      },
      "properties": {
        "id": "11025",
        "name": "Weitra",
        "country": "Austria"
      }
    },
    {
      "type": "Feature",
      "geometry": {
        "type": "Point",
        "coordinates": [
          16.190833,
          48.409722
        ]
      },
      "properties": {
        "id": "11027",
        "name": "Stockerau",
        "country": "Austria"
      }
    },
    {
      "type": "Feature",
      "geometry": {
        "type": "Point",
        "coordinates": [
          15.616667,
          48.200000
        ]
      },
      "properties": {
        "id": "11028",
        "name": "Saint Poelten",
        "country": "Austria"
      }
    },
    {
      "type": "Feature",
      "geometry": {
        "type": "Point",
        "coordinates": [
          16.118056,
          48.323889
        ]
      },
      "properties": {
        "id": "11030",
        "icao": "LOXT",
        "name": "Tulln",
        "country": "Austria"
      }
    },
    {
      "type": "Feature",
      "geometry": {
        "type": "Point",
        "coordinates": [
          16.637500,
          48.668889
        ]
      },
      "properties": {
        "id": "11032",
        "name": "Poysdorf",
        "country": "Austria"
      }
    },
    {
      "type": "Feature",
      "geometry": {
        "type": "Point",
        "coordinates": [
          16.366667,
          48.198056
        ]
      },
      "properties": {
        "id": "11034",
        "name": "Wien / City",
        "country": "Austria"
      }
    },
    {
      "type": "Feature",
      "geometry": {
        "type": "Point",
        "coordinates": [
          16.581389,
          48.117222
        ]
      },
      "properties": {
        "id": "11036",
        "icao": "LOWW",
        "name": "Wien / Schwechat-Flughafen",
        "country": "Austria"
      }
    },
    {
      "type": "Feature",
      "geometry": {
        "type": "Point",
        "coordinates": [
          16.535833,
          48.073889
        ]
      },
      "properties": {
        "id": "11038",
        "name": "Rauchenwarth Bei Schwechat",
        "country": "Austria"
      }
    },
    {
      "type": "Feature",
      "geometry": {
        "type": "Point",
        "coordinates": [
          16.419444,
          48.125000
        ]
      },
      "properties": {
        "id": "11040",
        "name": "Wien/Unterlaa",
        "country": "Austria"
      }
    },
    {
      "type": "Feature",
      "geometry": {
        "type": "Point",
        "coordinates": [
          13.028333,
          48.224167
        ]
      },
      "properties": {
        "id": "11051",
        "name": "Ranshofen",
        "country": "Austria"
      }
    },
    {
      "type": "Feature",
      "geometry": {
        "type": "Point",
        "coordinates": [
          13.062500,
          48.065556
        ]
      },
      "properties": {
        "id": "11052",
        "name": "Feldkirchen",
        "country": "Austria"
      }
    },
    {
      "type": "Feature",
      "geometry": {
        "type": "Point",
        "coordinates": [
          13.475000,
          48.217222
        ]
      },
      "properties": {
        "id": "11053",
        "name": "Ried Im Innkreis",
        "country": "Austria"
      }
    },
    {
      "type": "Feature",
      "geometry": {
        "type": "Point",
        "coordinates": [
          13.434167,
          48.464167
        ]
      },
      "properties": {
        "id": "11055",
        "name": "Schaerding",
        "country": "Austria"
      }
    },
    {
      "type": "Feature",
      "geometry": {
        "type": "Point",
        "coordinates": [
          14.071389,
          48.162778
        ]
      },
      "properties": {
        "id": "11059",
        "name": "Wels / Schleissheim",
        "country": "Austria"
      }
    },
    {
      "type": "Feature",
      "geometry": {
        "type": "Point",
        "coordinates": [
          14.285000,
          48.296389
        ]
      },
      "properties": {
        "id": "11060",
        "name": "Linz / Stadt",
        "country": "Austria"
      }
    },
    {
      "type": "Feature",
      "geometry": {
        "type": "Point",
        "coordinates": [
          15.621944,
          48.418333
        ]
      },
      "properties": {
        "id": "11070",
        "name": "Krems",
        "country": "Austria"
      }
    },
    {
      "type": "Feature",
      "geometry": {
        "type": "Point",
        "coordinates": [
          14.809444,
          47.945556
        ]
      },
      "properties": {
        "id": "11071",
        "name": "Waidhofen/Ybbs",
        "country": "Austria"
      }
    },
    {
      "type": "Feature",
      "geometry": {
        "type": "Point",
        "coordinates": [
          16.828611,
          47.948889
        ]
      },
      "properties": {
        "id": "11072",
        "name": "Neusiedl Am See",
        "country": "Austria"
      }
    },
    {
      "type": "Feature",
      "geometry": {
        "type": "Point",
        "coordinates": [
          15.696944,
          48.472222
        ]
      },
      "properties": {
        "id": "11075",
        "name": "Langenlois",
        "country": "Austria"
      }
    },
    {
      "type": "Feature",
      "geometry": {
        "type": "Point",
        "coordinates": [
          16.229444,
          48.206667
        ]
      },
      "properties": {
        "id": "11080",
        "name": "Wien/Mariabrunn",
        "country": "Austria"
      }
    },
    {
      "type": "Feature",
      "geometry": {
        "type": "Point",
        "coordinates": [
          16.280833,
          48.035556
        ]
      },
      "properties": {
        "id": "11082",
        "name": "Gumpoldskirchen",
        "country": "Austria"
      }
    },
    {
      "type": "Feature",
      "geometry": {
        "type": "Point",
        "coordinates": [
          16.371389,
          48.558611
        ]
      },
      "properties": {
        "id": "11083",
        "name": "Leiser Berge",
        "country": "Austria"
      }
    },
    {
      "type": "Feature",
      "geometry": {
        "type": "Point",
        "coordinates": [
          16.831389,
          48.338056
        ]
      },
      "properties": {
        "id": "11085",
        "name": "Zwerndorf-Marchegg",
        "country": "Austria"
      }
    },
    {
      "type": "Feature",
      "geometry": {
        "type": "Point",
        "coordinates": [
          16.431111,
          48.256944
        ]
      },
      "properties": {
        "id": "11090",
        "name": "Wien-Donaufeld",
        "country": "Austria"
      }
    },
    {
      "type": "Feature",
      "geometry": {
        "type": "Point",
        "coordinates": [
          9.745833,
          47.499167
        ]
      },
      "properties": {
        "id": "11101",
        "name": "Bregenz",
        "country": "Austria"
      }
    },
    {
      "type": "Feature",
      "geometry": {
        "type": "Point",
        "coordinates": [
          9.609444,
          47.270833
        ]
      },
      "properties": {
        "id": "11105",
        "name": "Feldkirch",
        "country": "Austria"
      }
    },
    {
      "type": "Feature",
      "geometry": {
        "type": "Point",
        "coordinates": [
          10.270000,
          47.131667
        ]
      },
      "properties": {
        "id": "11109",
        "name": "St. Anton Am Arlberg",
        "country": "Austria"
      }
    },
    {
      "type": "Feature",
      "geometry": {
        "type": "Point",
        "coordinates": [
          10.230278,
          47.129444
        ]
      },
      "properties": {
        "id": "11110",
        "name": "Galzig",
        "country": "Austria"
      }
    },
    {
      "type": "Feature",
      "geometry": {
        "type": "Point",
        "coordinates": [
          10.505556,
          47.500278
        ]
      },
      "properties": {
        "id": "11111",
        "name": "Tannheim",
        "country": "Austria"
      }
    },
    {
      "type": "Feature",
      "geometry": {
        "type": "Point",
        "coordinates": [
          10.563333,
          47.140278
        ]
      },
      "properties": {
        "id": "11112",
        "name": "Landeck",
        "country": "Austria"
      }
    },
    {
      "type": "Feature",
      "geometry": {
        "type": "Point",
        "coordinates": [
          10.496667,
          46.890833
        ]
      },
      "properties": {
        "id": "11113",
        "name": "Nauders",
        "country": "Austria"
      }
    },
    {
      "type": "Feature",
      "geometry": {
        "type": "Point",
        "coordinates": [
          11.175278,
          47.324722
        ]
      },
      "properties": {
        "id": "11119",
        "name": "Seefeld",
        "country": "Austria"
      }
    },
    {
      "type": "Feature",
      "geometry": {
        "type": "Point",
        "coordinates": [
          11.343889,
          47.260278
        ]
      },
      "properties": {
        "id": "11120",
        "icao": "LOWI",
        "name": "Innsbruck-Flughafen",
        "country": "Austria"
      }
    },
    {
      "type": "Feature",
      "geometry": {
        "type": "Point",
        "coordinates": [
          11.356667,
          47.259722
        ]
      },
      "properties": {
        "id": "11121",
        "name": "Innsbruck-Flughafen (Automat)",
        "country": "Austria"
      }
    },
    {
      "type": "Feature",
      "geometry": {
        "type": "Point",
        "coordinates": [
          10.212778,
          47.157222
        ]
      },
      "properties": {
        "id": "11124",
        "name": "Valluga (Radar)",
        "country": "Austria"
      }
    },
    {
      "type": "Feature",
      "geometry": {
        "type": "Point",
        "coordinates": [
          11.461944,
          47.208889
        ]
      },
      "properties": {
        "id": "11126",
        "name": "Patscherkofel",
        "country": "Austria"
      }
    },
    {
      "type": "Feature",
      "geometry": {
        "type": "Point",
        "coordinates": [
          11.024444,
          46.866667
        ]
      },
      "properties": {
        "id": "11127",
        "name": "Obergurgl",
        "country": "Austria"
      }
    },
    {
      "type": "Feature",
      "geometry": {
        "type": "Point",
        "coordinates": [
          12.162778,
          47.575278
        ]
      },
      "properties": {
        "id": "11130",
        "name": "Kufstein",
        "country": "Austria"
      }
    },
    {
      "type": "Feature",
      "geometry": {
        "type": "Point",
        "coordinates": [
          12.181944,
          47.229167
        ]
      },
      "properties": {
        "id": "11136",
        "name": "Krimml",
        "country": "Austria"
      }
    },
    {
      "type": "Feature",
      "geometry": {
        "type": "Point",
        "coordinates": [
          12.625833,
          47.134722
        ]
      },
      "properties": {
        "id": "11138",
        "name": "Alpinzentrum Rudolfshuette",
        "country": "Austria"
      }
    },
    {
      "type": "Feature",
      "geometry": {
        "type": "Point",
        "coordinates": [
          12.695278,
          47.584444
        ]
      },
      "properties": {
        "id": "11140",
        "name": "Lofer",
        "country": "Austria"
      }
    },
    {
      "type": "Feature",
      "geometry": {
        "type": "Point",
        "coordinates": [
          13.221111,
          47.406389
        ]
      },
      "properties": {
        "id": "11141",
        "name": "Bischofshofen",
        "country": "Austria"
      }
    },
    {
      "type": "Feature",
      "geometry": {
        "type": "Point",
        "coordinates": [
          13.183333,
          47.315278
        ]
      },
      "properties": {
        "id": "11142",
        "name": "St. Johann/Pongau",
        "country": "Austria"
      }
    },
    {
      "type": "Feature",
      "geometry": {
        "type": "Point",
        "coordinates": [
          12.783333,
          47.300000
        ]
      },
      "properties": {
        "id": "11143",
        "name": "Zell Am See-Flugfeld",
        "country": "Austria"
      }
    },
    {
      "type": "Feature",
      "geometry": {
        "type": "Point",
        "coordinates": [
          13.133333,
          47.116667
        ]
      },
      "properties": {
        "id": "11145",
        "name": "Bad Gastein",
        "country": "Austria"
      }
    },
    {
      "type": "Feature",
      "geometry": {
        "type": "Point",
        "coordinates": [
          13.008333,
          47.789167
        ]
      },
      "properties": {
        "id": "11150",
        "icao": "LOWS",
        "name": "Salzburg-Flughafen",
        "country": "Austria"
      }
    },
    {
      "type": "Feature",
      "geometry": {
        "type": "Point",
        "coordinates": [
          13.105278,
          47.977222
        ]
      },
      "properties": {
        "id": "11152",
        "name": "Mattsee",
        "country": "Austria"
      }
    },
    {
      "type": "Feature",
      "geometry": {
        "type": "Point",
        "coordinates": [
          13.347222,
          47.850833
        ]
      },
      "properties": {
        "id": "11153",
        "name": "Mondsee",
        "country": "Austria"
      }
    },
    {
      "type": "Feature",
      "geometry": {
        "type": "Point",
        "coordinates": [
          13.807222,
          47.914722
        ]
      },
      "properties": {
        "id": "11154",
        "name": "Gmunden",
        "country": "Austria"
      }
    },
    {
      "type": "Feature",
      "geometry": {
        "type": "Point",
        "coordinates": [
          13.717778,
          47.816389
        ]
      },
      "properties": {
        "id": "11155",
        "name": "Feuerkogel",
        "country": "Austria"
      }
    },
    {
      "type": "Feature",
      "geometry": {
        "type": "Point",
        "coordinates": [
          14.138056,
          47.532778
        ]
      },
      "properties": {
        "id": "11157",
        "icao": "LOXA",
        "name": "Aigen Im Ennstal",
        "country": "Austria"
      }
    },
    {
      "type": "Feature",
      "geometry": {
        "type": "Point",
        "coordinates": [
          14.953889,
          47.521667
        ]
      },
      "properties": {
        "id": "11161",
        "name": "Praebichl",
        "country": "Austria"
      }
    },
    {
      "type": "Feature",
      "geometry": {
        "type": "Point",
        "coordinates": [
          14.750000,
          47.200000
        ]
      },
      "properties": {
        "id": "11165",
        "icao": "LOXZ",
        "name": "Zeltweg",
        "country": "Austria"
      }
    },
    {
      "type": "Feature",
      "geometry": {
        "type": "Point",
        "coordinates": [
          15.067500,
          47.854167
        ]
      },
      "properties": {
        "id": "11170",
        "name": "Lunz",
        "country": "Austria"
      }
    },
    {
      "type": "Feature",
      "geometry": {
        "type": "Point",
        "coordinates": [
          15.302222,
          47.788889
        ]
      },
      "properties": {
        "id": "11171",
        "name": "St Sebastian / Mariazell",
        "country": "Austria"
      }
    },
    {
      "type": "Feature",
      "geometry": {
        "type": "Point",
        "coordinates": [
          15.316667,
          47.766667
        ]
      },
      "properties": {
        "id": "11172",
        "name": "Mariazell",
        "country": "Austria"
      }
    },
    {
      "type": "Feature",
      "geometry": {
        "type": "Point",
        "coordinates": [
          15.643611,
          47.444167
        ]
      },
      "properties": {
        "id": "11173",
        "name": "Fischbach",
        "country": "Austria"
      }
    },